<ArGpsLocationData><Entry><id>0</id><lat>48.09450927802908</lat><lng>11.584659995985817</lng><altitude>0</altitude><altitudeMode>GroundRelative</altitudeMode><name>FrontDoor</name><meshId>0</meshId><movementSmoothing>0.05</movementSmoothing><maxNumberOfLocationUpdates>0</maxNumberOfLocationUpdates><useMovingAverage>false</useMovingAverage><hideObjectUtilItIsPlaced>true</hideObjectUtilItIsPlaced></Entry><Entry><id>1</id><lat>48.095640770870205</lat><lng>11.583979226002157</lng><altitude>0</altitude><altitudeMode>GroundRelative</altitudeMode><name>MiesbacherPlatz</name><meshId>1</meshId><movementSmoothing>0.05</movementSmoothing><maxNumberOfLocationUpdates>0</maxNumberOfLocationUpdates><useMovingAverage>false</useMovingAverage><hideObjectUtilItIsPlaced>true</hideObjectUtilItIsPlaced></Entry><Entry><id>2</id><lat>48.096763740932346</lat><lng>11.583308594024032</lng><altitude>0</altitude><altitudeMode>GroundRelative</altitudeMode><name>MiesbacherPlatz2</name><meshId>2</meshId><movementSmoothing>0.05</movementSmoothing><maxNumberOfLocationUpdates>0</maxNumberOfLocationUpdates><useMovingAverage>false</useMovingAverage><hideObjectUtilItIsPlaced>true</hideObjectUtilItIsPlaced></Entry><Entry><id>3</id><lat>48.0984390554826</lat><lng>11.581967848401035</lng><altitude>0</altitude><altitudeMode>GroundRelative</altitudeMode><name>University</name><meshId>3</meshId><movementSmoothing>0.05</movementSmoothing><maxNumberOfLocationUpdates>0</maxNumberOfLocationUpdates><useMovingAverage>false</useMovingAverage><hideObjectUtilItIsPlaced>true</hideObjectUtilItIsPlaced></Entry><Entry><id>4</id><lat>48.103520157377034</lat><lng>11.581854701593585</lng><altitude>0</altitude><altitudeMode>GroundRelative</altitudeMode><name>ReHapy</name><meshId>4</meshId><movementSmoothing>0.05</movementSmoothing><maxNumberOfLocationUpdates>0</maxNumberOfLocationUpdates><useMovingAverage>false</useMovingAverage><hideObjectUtilItIsPlaced>true</hideObjectUtilItIsPlaced></Entry><Entry><id>5</id><lat>48.10415742564004</lat><lng>11.581476388838439</lng><altitude>0</altitude><altitudeMode>GroundRelative</altitudeMode><name>St.Quirin</name><meshId>5</meshId><movementSmoothing>0.05</movementSmoothing><maxNumberOfLocationUpdates>0</maxNumberOfLocationUpdates><useMovingAverage>false</useMovingAverage><hideObjectUtilItIsPlaced>true</hideObjectUtilItIsPlaced></Entry><Entry><id>6</id><lat>48.10441566574141</lat><lng>11.581493672251497</lng><altitude>0</altitude><altitudeMode>GroundRelative</altitudeMode><name>St.Quirin</name><meshId>6</meshId><movementSmoothing>0.05</movementSmoothing><maxNumberOfLocationUpdates>0</maxNumberOfLocationUpdates><useMovingAverage>false</useMovingAverage><hideObjectUtilItIsPlaced>true</hideObjectUtilItIsPlaced></Entry></ArGpsLocationData>